[
  {
    "lat": 44.7231,
    "lng": 21.4012,
    "type": "historical",
    "title": "Рамска тврђава",
    "desc": "Средњовековна тврђава из 15. века на десној обали Дунава. Подигао ју је турски султан Бајазит II ради одбране од Угарске."
  },
  {
    "lat": 43.5644,
    "lng": 21.4328,
    "type": "historical",
    "title": "Гамзиград (Felix Romuliana)",
    "desc": "Археолошко налазиште у близини Зајечара. Палата касноримског цара Галерија из 3. века, под заштитом УНЕСКО-а."
  },
  {
    "lat": 44.8116,
    "lng": 20.4489,
    "type": "historical",
    "title": "Београдска тврђава",
    "desc": "Историјско језгро Београда на ушћу Саве у Дунав. Данашњи изглед датира из периода од 1-18. века."
  },
  {
    "lat": 44.7622,
    "lng": 20.4355,
    "type": "water",
    "title": "Хајдучка чесма",
    "desc": "Један од најстаријих и најпознатијих уређених извора пијаће воде у Београду, смештен у шуми Кошутњак."
  },
  {
    "lat": 44.3642,
    "lng": 20.9411,
    "type": "water",
    "title": "Извор Киселе воде",
    "desc": "Познати минерални извори лековите киселе воде у Смедеревској Паланци, који се користе још од римског доба."
  },
  {
    "lat": 43.8941,
    "lng": 19.4214,
    "type": "viewpoints",
    "title": "Видиковац Бањска стена",
    "desc": "Чувени видиковац на планини Тари са којег се пружа незабораван поглед на кањон реке Дрине и језеро Перућац."
  },
  {
    "lat": 44.7589,
    "lng": 20.4312,
    "type": "viewpoints",
    "title": "Видиковац Кошутњак",
    "desc": "Омиљена тачка за одмор у Кошутњачкој шуми која нуди изврстан поглед на Нови Београд и Савски венац."
  }
]
